{"type":"FeatureCollection","features":[{"type":"Feature","id":1,"geometry":{"type":"Point","coordinates":[-9.14620795021712,38.7061150810876]},"properties":{"OBJECTID":1,"COD_SIG":"35","IDTIPO":"9008","NOME":"Cais do Sodré","SITUACAO":"Linha existente","LINHA":"Verde","GlobalID":"605a1d0d-6f2d-4fff-8670-fd2671652790"}},{"type":"Feature","id":2,"geometry":{"type":"Point","coordinates":[-9.13420238756193,38.7071293396142]},"properties":{"OBJECTID":2,"COD_SIG":"34","IDTIPO":"9008","NOME":"Terreiro do Paço","SITUACAO":"Linha existente","LINHA":"Azul","GlobalID":"e2ebfd46-2ed6-4311-84e0-999c0ed2ea5b"}},{"type":"Feature","id":3,"geometry":{"type":"Point","coordinates":[-9.14015060636417,38.7105700699041]},"properties":{"OBJECTID":3,"COD_SIG":"33","IDTIPO":"9008","NOME":"Baixa Chiado","SITUACAO":"Linha existente","LINHA":"Azul/Verde","GlobalID":"8e652524-af6f-4e8e-87ef-e768b4431bdc"}},{"type":"Feature","id":4,"geometry":{"type":"Point","coordinates":[-9.1223340184811,38.7139242126512]},"properties":{"OBJECTID":4,"COD_SIG":"37","IDTIPO":"9008","NOME":"Santa Apolónia","SITUACAO":"Linha existente","LINHA":"Azul","GlobalID":"9368aca8-8a8a-44b3-9f7c-7912c4f80631"}},{"type":"Feature","id":5,"geometry":{"type":"Point","coordinates":[-9.13788558416029,38.7140387351334]},"properties":{"OBJECTID":5,"COD_SIG":"43","IDTIPO":"9008","NOME":"Rossio","SITUACAO":"Linha existente","LINHA":"Verde","GlobalID":"13e1374b-a4c2-47b3-9234-62677d5495a6"}},{"type":"Feature","id":6,"geometry":{"type":"Point","coordinates":[-9.14211755877668,38.7159224068044]},"properties":{"OBJECTID":6,"COD_SIG":"42","IDTIPO":"9008","NOME":"Restauradores","SITUACAO":"Linha existente","LINHA":"Azul","GlobalID":"9f0b0d81-b21b-41a8-96aa-69b91d20a6be"}},{"type":"Feature","id":7,"geometry":{"type":"Point","coordinates":[-9.13573782228017,38.7177019399986]},"properties":{"OBJECTID":7,"COD_SIG":"36","IDTIPO":"9008","NOME":"Martim Moniz","SITUACAO":"Linha existente","LINHA":"Verde","GlobalID":"e9e1b5f6-148b-4938-b2b7-9615f71815b2"}},{"type":"Feature","id":8,"geometry":{"type":"Point","coordinates":[-9.14515188409429,38.7194025351094]},"properties":{"OBJECTID":8,"COD_SIG":"32","IDTIPO":"9008","NOME":"Avenida","SITUACAO":"Linha existente","LINHA":"Azul","GlobalID":"56a12b6b-3e69-452d-a378-51213efef7ff"}},{"type":"Feature","id":9,"geometry":{"type":"Point","coordinates":[-9.15468780091093,38.7201575166883]},"properties":{"OBJECTID":9,"COD_SIG":"45","IDTIPO":"9008","NOME":"Rato","SITUACAO":"Linha existente","LINHA":"Amarela","GlobalID":"865786b0-55f5-437d-93d0-55516afac8d0"}},{"type":"Feature","id":10,"geometry":{"type":"Point","coordinates":[-9.13518490808126,38.7232980404134]},"properties":{"OBJECTID":10,"COD_SIG":"31","IDTIPO":"9008","NOME":"Intendente","SITUACAO":"Linha existente","LINHA":"Verde","GlobalID":"cb9fc3ce-0c76-481e-a70f-f81d7cc3576d"}},{"type":"Feature","id":11,"geometry":{"type":"Point","coordinates":[-9.14974636758321,38.724638955043]},"properties":{"OBJECTID":11,"COD_SIG":"23","IDTIPO":"9008","NOME":"Marquês de Pombal","SITUACAO":"Linha existente","LINHA":"Azul/Amarela","GlobalID":"92da7187-5cd7-46f1-9456-d964da755a42"}},{"type":"Feature","id":12,"geometry":{"type":"Point","coordinates":[-9.13480023096576,38.7271578246524]},"properties":{"OBJECTID":12,"COD_SIG":"30","IDTIPO":"9008","NOME":"Anjos","SITUACAO":"Linha existente","LINHA":"Verde","GlobalID":"92192db3-06ec-48a0-8749-aea197a6f8db"}},{"type":"Feature","id":13,"geometry":{"type":"Point","coordinates":[-9.15014123306272,38.7289458895159]},"properties":{"OBJECTID":13,"COD_SIG":"22","IDTIPO":"9008","NOME":"Parque","SITUACAO":"Linha existente","LINHA":"Azul","GlobalID":"44d0275d-4a29-4b38-baef-17b7d3709ead"}},{"type":"Feature","id":14,"geometry":{"type":"Point","coordinates":[-9.14688282452403,38.7304084282427]},"properties":{"OBJECTID":14,"COD_SIG":"21","IDTIPO":"9008","NOME":"Picoas","SITUACAO":"Linha existente","LINHA":"Amarela","GlobalID":"639a1de7-1942-420d-b5a8-b08e5024fa7f"}},{"type":"Feature","id":15,"geometry":{"type":"Point","coordinates":[-9.13423033340514,38.7328456373345]},"properties":{"OBJECTID":15,"COD_SIG":"29","IDTIPO":"9008","NOME":"Arroios","SITUACAO":"Linha existente","LINHA":"Verde","GlobalID":"21f475e8-6a9c-4c32-b2ff-5e7ce36a8a93"}},{"type":"Feature","id":16,"geometry":{"type":"Point","coordinates":[-9.15392287316945,38.7343970331662]},"properties":{"OBJECTID":16,"COD_SIG":"19","IDTIPO":"9008","NOME":"São Sebastião","SITUACAO":"Linha existente","LINHA":"Azul/Vermelha","GlobalID":"9bae0cfd-7466-434f-932d-ca5cda92e5dd"}},{"type":"Feature","id":17,"geometry":{"type":"Point","coordinates":[-9.14528831383823,38.7351689051228]},"properties":{"OBJECTID":17,"COD_SIG":"20","IDTIPO":"9008","NOME":"Saldanha","SITUACAO":"Linha existente","LINHA":"Amarela/Vermelha","GlobalID":"846f5e03-e3e5-4fa2-8373-aee11e0a6ffe"}},{"type":"Feature","id":18,"geometry":{"type":"Point","coordinates":[-9.13380942489798,38.7370549729502]},"properties":{"OBJECTID":18,"COD_SIG":"18","IDTIPO":"9008","NOME":"Alameda","SITUACAO":"Linha existente","LINHA":"Verde/Vermelha","GlobalID":"abc2f6a5-fee6-48bb-bd9f-a648e730eb8a"}},{"type":"Feature","id":19,"geometry":{"type":"Point","coordinates":[-9.15925422094947,38.7377491106506]},"properties":{"OBJECTID":19,"COD_SIG":"24","IDTIPO":"9008","NOME":"Praça de Espanha","SITUACAO":"Linha existente","LINHA":"Azul","GlobalID":"4d47de7d-082b-49f9-9d4b-0a1af38591a7"}},{"type":"Feature","id":20,"geometry":{"type":"Point","coordinates":[-9.1230025209179,38.7401729590514]},"properties":{"OBJECTID":20,"COD_SIG":"12","IDTIPO":"9008","NOME":"Olaias","SITUACAO":"Linha existente","LINHA":"Vermelha","GlobalID":"45c3bcb0-cf52-42bd-b89e-ac1b360d9f2f"}},{"type":"Feature","id":21,"geometry":{"type":"Point","coordinates":[-9.14668409480334,38.740929476453]},"properties":{"OBJECTID":21,"COD_SIG":"17","IDTIPO":"9008","NOME":"Campo Pequeno","SITUACAO":"Linha existente","LINHA":"Amarela","GlobalID":"bd7cfdf2-8bcb-4fa4-be55-9e7c80cfb06f"}},{"type":"Feature","id":22,"geometry":{"type":"Point","coordinates":[-9.16866629861376,38.741639206018]},"properties":{"OBJECTID":22,"COD_SIG":"25","IDTIPO":"9008","NOME":"Jardim Zoológico","SITUACAO":"Linha existente","LINHA":"Azul","GlobalID":"956d0b9d-4e3d-4439-8b90-26b781e0c54e"}},{"type":"Feature","id":23,"geometry":{"type":"Point","coordinates":[-9.13345548142175,38.7424454415358]},"properties":{"OBJECTID":23,"COD_SIG":"13","IDTIPO":"9008","NOME":"Areeiro","SITUACAO":"Linha existente","LINHA":"Verde","GlobalID":"3679726e-6d61-48ce-a215-a615fa8ca152"}},{"type":"Feature","id":24,"geometry":{"type":"Point","coordinates":[-9.1482146104718,38.7471334577605]},"properties":{"OBJECTID":24,"COD_SIG":"16","IDTIPO":"9008","NOME":"Entre Campos","SITUACAO":"Linha existente","LINHA":"Amarela","GlobalID":"063faee8-93c0-4f20-858d-8369f77e2c6c"}},{"type":"Feature","id":25,"geometry":{"type":"Point","coordinates":[-9.11762369396806,38.7477357859286]},"properties":{"OBJECTID":25,"COD_SIG":"11","IDTIPO":"9008","NOME":"Bela Vista","SITUACAO":"Linha existente","LINHA":"Vermelha","GlobalID":"d05171ae-57d8-486f-af96-81615763bc03"}},{"type":"Feature","id":26,"geometry":{"type":"Point","coordinates":[-9.14134526152344,38.7482228024879]},"properties":{"OBJECTID":26,"COD_SIG":"14","IDTIPO":"9008","NOME":"Roma","SITUACAO":"Linha existente","LINHA":"Verde","GlobalID":"b7277097-e9bd-4c17-83ed-b675d167f97e"}},{"type":"Feature","id":27,"geometry":{"type":"Point","coordinates":[-9.17258176533351,38.7487507528713]},"properties":{"OBJECTID":27,"COD_SIG":"26","IDTIPO":"9008","NOME":"Laranjeiras","SITUACAO":"Linha existente","LINHA":"Azul","GlobalID":"31fe754e-a6ba-446d-9e87-c9828967487e"}},{"type":"Feature","id":28,"geometry":{"type":"Point","coordinates":[-9.18006654807824,38.7499445388444]},"properties":{"OBJECTID":28,"COD_SIG":"28","IDTIPO":"9008","NOME":"Alto dos Moinhos","SITUACAO":"Linha existente","LINHA":"Azul","GlobalID":"99ea8d2f-611b-452a-af1a-8106ff94421c"}},{"type":"Feature","id":29,"geometry":{"type":"Point","coordinates":[-9.15912398203189,38.7515984207662]},"properties":{"OBJECTID":29,"COD_SIG":"27","IDTIPO":"9008","NOME":"Cidade Universitária","SITUACAO":"Linha existente","LINHA":"Amarela","GlobalID":"64ac6ef6-1c89-4f0b-8716-4ad2c3e7ad5e"}},{"type":"Feature","id":30,"geometry":{"type":"Point","coordinates":[-9.22388329579027,38.7522712870587]},"properties":{"OBJECTID":30,"COD_SIG":"48","IDTIPO":"9008","NOME":"Reboleira","SITUACAO":"Linha existente","LINHA":"Azul","GlobalID":"3c58c260-1a0e-4699-8afa-bea8d4cee8f6"}},{"type":"Feature","id":31,"geometry":{"type":"Point","coordinates":[-9.14400029637591,38.7531730686722]},"properties":{"OBJECTID":31,"COD_SIG":"15","IDTIPO":"9008","NOME":"Alvalade","SITUACAO":"Linha existente","LINHA":"Verde","GlobalID":"bf7e39a5-cee5-4a6c-a1e8-1696ea56657d"}},{"type":"Feature","id":32,"geometry":{"type":"Point","coordinates":[-9.18930499007435,38.753441421465]},"properties":{"OBJECTID":32,"COD_SIG":"39","IDTIPO":"9008","NOME":"Colégio Militar","SITUACAO":"Linha existente","LINHA":"Azul","GlobalID":"f4ffba38-68e8-4bbe-9884-8118a5cf91b9"}},{"type":"Feature","id":33,"geometry":{"type":"Point","coordinates":[-9.11393068105765,38.7549149532346]},"properties":{"OBJECTID":33,"COD_SIG":"10","IDTIPO":"9008","NOME":"Chelas","SITUACAO":"Linha existente","LINHA":"Vermelha","GlobalID":"04e34a8e-1003-4d19-b163-89740b539410"}},{"type":"Feature","id":34,"geometry":{"type":"Point","coordinates":[-9.21790161747948,38.7587158590108]},"properties":{"OBJECTID":34,"COD_SIG":"41","IDTIPO":"9008","NOME":"Amadora Este","SITUACAO":"Linha existente","LINHA":"Azul","GlobalID":"4c4a6260-f3bc-44db-8829-7e578498c4aa"}},{"type":"Feature","id":35,"geometry":{"type":"Point","coordinates":[-9.19262713345253,38.759168109099]},"properties":{"OBJECTID":35,"COD_SIG":"44","IDTIPO":"9008","NOME":"Carnide","SITUACAO":"Linha existente","LINHA":"Azul","GlobalID":"43917650-fac8-418a-8934-88370ecb6f1c"}},{"type":"Feature","id":36,"geometry":{"type":"Point","coordinates":[-9.1578896614592,38.7602165259205]},"properties":{"OBJECTID":36,"COD_SIG":"3","IDTIPO":"9008","NOME":"Campo Grande","SITUACAO":"Linha existente","LINHA":"Amarela/Verde","GlobalID":"44ad8a74-465d-4b16-a6aa-0708f95972aa"}},{"type":"Feature","id":37,"geometry":{"type":"Point","coordinates":[-9.16644430726784,38.7599634337851]},"properties":{"OBJECTID":37,"COD_SIG":"4","IDTIPO":"9008","NOME":"Telheiras","SITUACAO":"Linha existente","LINHA":"Verde","GlobalID":"86e7e822-86b6-4a6a-8008-5dabf8de4275"}},{"type":"Feature","id":38,"geometry":{"type":"Point","coordinates":[-9.11176892689733,38.7609221401764]},"properties":{"OBJECTID":38,"COD_SIG":"9","IDTIPO":"9008","NOME":"Olivais","SITUACAO":"Linha existente","LINHA":"Vermelha","GlobalID":"df7f91ed-9295-49ec-bab1-346bff2b211d"}},{"type":"Feature","id":39,"geometry":{"type":"Point","coordinates":[-9.20447747862651,38.7605071106029]},"properties":{"OBJECTID":39,"COD_SIG":"40","IDTIPO":"9008","NOME":"Alfornelos","SITUACAO":"Linha existente","LINHA":"Azul","GlobalID":"48b20f1c-91a7-4140-b8e0-aa34479310d1"}},{"type":"Feature","id":40,"geometry":{"type":"Point","coordinates":[-9.19686363917219,38.7622502213567]},"properties":{"OBJECTID":40,"COD_SIG":"38","IDTIPO":"9008","NOME":"Pontinha","SITUACAO":"Linha existente","LINHA":"Azul","GlobalID":"8671c6e7-41ac-4155-96e0-facad2b5f095"}},{"type":"Feature","id":41,"geometry":{"type":"Point","coordinates":[-9.10511478609739,38.7629641453917]},"properties":{"OBJECTID":41,"COD_SIG":"8","IDTIPO":"9008","NOME":"Cabo Ruivo","SITUACAO":"Linha existente","LINHA":"Vermelha","GlobalID":"99d1c2ca-9c10-4c3b-aee8-e770f3dbe772"}},{"type":"Feature","id":42,"geometry":{"type":"Point","coordinates":[-9.15555480778863,38.7674892706787]},"properties":{"OBJECTID":42,"COD_SIG":"2","IDTIPO":"9008","NOME":"Quinta das Conchas","SITUACAO":"Linha existente","LINHA":"Amarela","GlobalID":"dc879af9-7ce5-4e76-8ff9-457a398a7112"}},{"type":"Feature","id":43,"geometry":{"type":"Point","coordinates":[-9.0998135518355,38.7679599444634]},"properties":{"OBJECTID":43,"COD_SIG":"7","IDTIPO":"9008","NOME":"Oriente","SITUACAO":"Linha existente","LINHA":"Vermelha","GlobalID":"6399d7a4-a8a1-420e-aacb-6038e522376c"}},{"type":"Feature","id":44,"geometry":{"type":"Point","coordinates":[-9.12820311123166,38.7683794008583]},"properties":{"OBJECTID":44,"COD_SIG":"49","IDTIPO":"9008","NOME":"Aeroporto","SITUACAO":"Linha existente","LINHA":"Vermelha","GlobalID":"f348397e-e7ab-41d1-9cdb-93acd7efd8c9"}},{"type":"Feature","id":45,"geometry":{"type":"Point","coordinates":[-9.159288760681,38.7732843374556]},"properties":{"OBJECTID":45,"COD_SIG":"46","IDTIPO":"9008","NOME":"Lumiar","SITUACAO":"Linha existente","LINHA":"Amarela","GlobalID":"11a32528-9100-4282-9cc6-21478f04b1e4"}},{"type":"Feature","id":46,"geometry":{"type":"Point","coordinates":[-9.11537495212044,38.7750679264104]},"properties":{"OBJECTID":46,"COD_SIG":"50","IDTIPO":"9008","NOME":"Encarnação","SITUACAO":"Linha existente","LINHA":"Vermelha","GlobalID":"c8e1ba5c-b413-4ff4-9868-986c80b0b62b"}},{"type":"Feature","id":47,"geometry":{"type":"Point","coordinates":[-9.10300158883893,38.7749214790169]},"properties":{"OBJECTID":47,"COD_SIG":"47","IDTIPO":"9008","NOME":"Moscavide","SITUACAO":"Linha existente","LINHA":"Vermelha","GlobalID":"aa1c5841-4051-4022-9c82-ad73142673c2"}},{"type":"Feature","id":48,"geometry":{"type":"Point","coordinates":[-9.15952318236053,38.7795364143671]},"properties":{"OBJECTID":48,"COD_SIG":"1","IDTIPO":"9008","NOME":"Ameixoeira","SITUACAO":"Linha existente","LINHA":"Amarela","GlobalID":"0ed97a1f-e6ac-4d7e-af58-27131ee84703"}},{"type":"Feature","id":49,"geometry":{"type":"Point","coordinates":[-9.17189570290375,38.785776294755]},"properties":{"OBJECTID":49,"COD_SIG":"6","IDTIPO":"9008","NOME":"Senhor Roubado","SITUACAO":"Linha existente","LINHA":"Amarela","GlobalID":"fe1f2d86-2a69-41a8-a2a0-cba60895fc0d"}},{"type":"Feature","id":50,"geometry":{"type":"Point","coordinates":[-9.17319799147843,38.7935139056005]},"properties":{"OBJECTID":50,"COD_SIG":"5","IDTIPO":"9008","NOME":"Odivelas","SITUACAO":"Linha existente","LINHA":"Amarela","GlobalID":"485cea10-5978-451a-acce-e4f647e1fa05"}}]}